[{"gare": "Gare de Champbenoist - Poigny",
    "ligne": "P", "numero_de_voie": null, "voie": "avenue de Poigny", "code_postal": 77160, "code_insee": 77368, "ville": "Poigny", "latitude": 48.546929, "longitude": 3.285427, "result_score": 0.85, "result_type": "street", "latlong": {"lon": 3.285427, "lat": 48.546929}, "adresse_comp": "avenue de Poigny, 77160 Poigny"},{"gare": "Gare de Trilport", "ligne": "P", "numero_de_voie": null, "voie": "Avenue de la Gare", "code_postal": 77470, "code_insee": 77475, "ville": "Trilport", "latitude": 48.959857, "longitude": 2.949475, "result_score": 0.95, "result_type": "street", "latlong": {"lon": 2.949475, "lat": 48.959857}, "adresse_comp": "Avenue de la Gare, 77470 Trilport"},{"gare": "Gare de Cr\u00e9cy-la-Chapelle", "ligne": "P", "numero_de_voie": null, "voie": "Avenue de la Gare", "code_postal": 77580, "code_insee": 77142, "ville": "Cr\u00e9cy-la-Chapelle", "latitude": 48.859196, "longitude": 2.906215, "result_score": 0.95, "result_type": "street", "latlong": {"lon": 2.906215, "lat": 48.859196}, "adresse_comp": "Avenue de la Gare, 77580 Cr\u00e9cy-la-Chapelle"},{"gare": "Gare d\u2019Orangis - Bois de l'\u00c9pine", "ligne": "D", "numero_de_voie": null, "voie": "Avenue de la R\u00e9sistance", "code_postal": 91130, "code_insee": 91521, "ville": "Ris-Orangis", "latitude": 48.635463, "longitude": 2.407886, "result_score": 0.95, "result_type": "street", "latlong": {"lon": 2.407886, "lat": 48.635463}, "adresse_comp": "Avenue de la R\u00e9sistance, 91130 Ris-Orangis"},{"gare": "Gare de La Norville - Saint-Germain-l\u00e8s-Arpajon", "ligne": "C", "numero_de_voie": null, "voie": "Rue de la Gare", "code_postal": 91290, "code_insee": 91457, "ville": "La Norville", "latitude": 48.592435, "longitude": 2.265851, "result_score": 0.96, "result_type": "street", "latlong": {"lon": 2.265851, "lat": 48.592435}, "adresse_comp": "Rue de la Gare, 91290 La Norville"},{"gare": "Gare de Ballancourt", "ligne": "D", "numero_de_voie": null, "voie": "Avenue du G\u00e9n\u00e9ral Leclerc", "code_postal": 91610, "code_insee": 91045, "ville": "Ballancourt-sur-Essonne", "latitude": 48.530589, "longitude": 2.374267, "result_score": 0.96, "result_type": "street", "latlong": {"lon": 2.374267, "lat": 48.530589}, "adresse_comp": "Avenue du G\u00e9n\u00e9ral Leclerc, 91610 Ballancourt-sur-Essonne"},{"gare": "Gare Suresnes-Mont-Val\u00e9rien", "ligne": "L", "numero_de_voie": null, "voie": "Rue Worth", "code_postal": 92150, "code_insee": 92073, "ville": "Suresnes", "latitude": 48.869785, "longitude": 2.220618, "result_score": 0.97, "result_type": "street", "latlong": {"lon": 2.220618, "lat": 48.869785}, "adresse_comp": "Rue Worth, 92150 Suresnes"},{"gare": "Gare d\u2019Orly", "ligne": "C", "numero_de_voie": 1, "voie": "Place du 8 mai 1945", "code_postal": 94310, "code_insee": 94054, "ville": "Orly", "latitude": 48.741342, "longitude": 2.402894, "result_score": 0.96, "result_type": "housenumber", "latlong": {"lon": 2.402894, "lat": 48.741342}, "adresse_comp": "1 Place du 8 mai 1945, 94310 Orly"},{"gare": "Gare de Domont", "ligne": "H", "numero_de_voie": null, "voie": "Place de la Gare", "code_postal": 95330, "code_insee": 95199, "ville": "Domont", "latitude": 49.032487, "longitude": 2.337597, "result_score": 0.96, "result_type": "street", "latlong": {"lon": 2.337597, "lat": 49.032487}, "adresse_comp": "Place de la Gare, 95330 Domont"},{"gare": "Gare de Bouff\u00e9mont \u2013 Moisselles", "ligne": "H", "numero_de_voie": null, "voie": "Place de la Gare", "code_postal": 95570, "code_insee": 95091, "ville": "Bouff\u00e9mont", "latitude": 49.045482, "longitude": 2.321495, "result_score": 0.95, "result_type": "street", "latlong": {"lon": 2.321495, "lat": 49.045482}, "adresse_comp": "Place de la Gare, 95570 Bouff\u00e9mont"},{"gare": "Gare de Mormant", "ligne": "P", "numero_de_voie": null, "voie": "Place de la Gare", "code_postal": 77720, "code_insee": 77317, "ville": "Mormant", "latitude": 48.613603, "longitude": 2.888864, "result_score": null, "result_type": null, "latlong": {"lon": 2.888864, "lat": 48.613603}, "adresse_comp": "Place de la Gare, 77720 Mormant"},{"gare": "Gare de Nanteuil - Sa\u00e2cy", "ligne": "P", "numero_de_voie": null, "voie": "avenue du G\u00e9n\u00e9ral Leclerc", "code_postal": 77730, "code_insee": 77397, "ville": "Sa\u00e2cy-sur-Marne", "latitude": 48.968238, "longitude": 3.215218, "result_score": 0.96, "result_type": "street", "latlong": {"lon": 3.215218, "lat": 48.968238}, "adresse_comp": "avenue du G\u00e9n\u00e9ral Leclerc, 77730 Sa\u00e2cy-sur-Marne"},{"gare": "Gare de Villepreux - Les Clayes", "ligne": "N", "numero_de_voie": null, "voie": "Place du Petit Prince", "code_postal": 78340, "code_insee": 78165, "ville": "Clayes-sous-Bois", "latitude": 48.823862, "longitude": 1.993332, "result_score": 0.86, "result_type": "street", "latlong": {"lon": 1.993332, "lat": 48.823862}, "adresse_comp": "Place du Petit Prince, 78340 Clayes-sous-Bois"},{"gare": "Gare de Houdan", "ligne": "N", "numero_de_voie": null, "voie": "Boulevard de la Gare", "code_postal": 78550, "code_insee": 78310, "ville": "Houdan", "latitude": 48.795472, "longitude": 1.602269, "result_score": 0.95, "result_type": "street", "latlong": {"lon": 1.602269, "lat": 48.795472}, "adresse_comp": "Boulevard de la Gare, 78550 Houdan"},{"gare": "Gare de Lardy", "ligne": "C", "numero_de_voie": null, "voie": "Place de la Gare", "code_postal": 91510, "code_insee": 91330, "ville": "Lardy", "latitude": 48.520765, "longitude": 2.256225, "result_score": null, "result_type": null, "latlong": {"lon": 2.256225, "lat": 48.520765}, "adresse_comp": "Place de la Gare, 91510 Lardy"},{"gare": "Gare de Saint-Cloud", "ligne": "L", "numero_de_voie": 40, "voie": "Rue Dailly", "code_postal": 92210, "code_insee": 92064, "ville": "Saint-Cloud", "latitude": 48.845023, "longitude": 2.217357, "result_score": 0.88, "result_type": "housenumber", "latlong": {"lon": 2.217357, "lat": 48.845023}, "adresse_comp": "40 Rue Dailly, 92210 Saint-Cloud"},{"gare": "Gare de Maisons-Alfortville", "ligne": "D", "numero_de_voie": 1, "voie": "Place Jean Moulin", "code_postal": 94140, "code_insee": 94046, "ville": "Maisons-Alfort", "latitude": 48.80177, "longitude": 2.427338, "result_score": null, "result_type": null, "latlong": {"lon": 2.427338, "lat": 48.80177}, "adresse_comp": "1 Place Jean Moulin, 94140 Maisons-Alfort"},{"gare": "Gare de Villiers-sur-Marne - Le Plessis-Tr\u00e9vise", "ligne": "E", "numero_de_voie": null, "voie": "Place Pierre-Semard", "code_postal": 94350, "code_insee": 94079, "ville": "Villiers-sur-Marne", "latitude": 48.823562, "longitude": 2.542666, "result_score": null, "result_type": null, "latlong": {"lon": 2.542666, "lat": 48.823562}, "adresse_comp": "Place Pierre-Semard, 94350 Villiers-sur-Marne"},{"gare": "Gare de L'Isle-Adam - Parmain", "ligne": "H", "numero_de_voie": null, "voie": "Place Raymond Poincar\u00e9", "code_postal": 95290, "code_insee": 95480, "ville": "Parmain", "latitude": 49.120176, "longitude": 2.210485, "result_score": 0.78, "result_type": "street", "latlong": {"lon": 2.210485, "lat": 49.120176}, "adresse_comp": "Place Raymond Poincar\u00e9, 95290 Parmain"},{"gare": "Gare d\u2019Osny", "ligne": "J", "numero_de_voie": null, "voie": "rue Aristide Briand", "code_postal": 95520, "code_insee": 95476, "ville": "Osny", "latitude": 49.060946, "longitude": 2.060237, "result_score": 0.97, "result_type": "street", "latlong": {"lon": 2.060237, "lat": 49.060946}, "adresse_comp": "rue Aristide Briand, 95520 Osny"},{"gare": "Gare de Versailles - Chantiers", "ligne": "N", "numero_de_voie": 4, "voie": "Rue de l'Abb\u00e9 Rousseau", "code_postal": 78000, "code_insee": 78646, "ville": "Versailles", "latitude": 48.796117, "longitude": 2.135999, "result_score": 0.97, "result_type": "housenumber", "latlong": {"lon": 2.135999, "lat": 48.796117}, "adresse_comp": "4 Rue de l'Abb\u00e9 Rousseau, 78000 Versailles"},{"gare": "Gare de Marolles-en-Hurepoix", "ligne": "C", "numero_de_voie": null, "voie": "Place de la Gare", "code_postal": 91630, "code_insee": 91376, "ville": "Marolles-en-Hurepoix", "latitude": 48.565652, "longitude": 2.288718, "result_score": null, "result_type": null, "latlong": {"lon": 2.288718, "lat": 48.565652}, "adresse_comp": "Place de la Gare, 91630 Marolles-en-Hurepoix"},{"gare": "Gare du Coudray-Montceaux", "ligne": "D", "numero_de_voie": null, "voie": "Chemin de la Gare", "code_postal": 91830, "code_insee": 91179, "ville": "Coudray-Montceaux", "latitude": 48.563689, "longitude": 2.497018, "result_score": 0.82, "result_type": "street", "latlong": {"lon": 2.497018, "lat": 48.563689}, "adresse_comp": "Chemin de la Gare, 91830 Coudray-Montceaux"},{"gare": "Gare de B\u00e9con-les-Bruy\u00e8res", "ligne": "L", "numero_de_voie": null, "voie": "Place de la Gare", "code_postal": 92400, "code_insee": 92026, "ville": "Courbevoie", "latitude": 48.905895, "longitude": 2.268367, "result_score": null, "result_type": null, "latlong": {"lon": 2.268367, "lat": 48.905895}, "adresse_comp": "Place de la Gare, 92400 Courbevoie"},{"gare": "Gare d\u2019Aulnay-sous-Bois", "ligne": "B", "numero_de_voie": 5, "voie": "Place du G\u00e9n\u00e9ral de Gaulle", "code_postal": 93600, "code_insee": 93005, "ville": "Aulnay-sous-Bois", "latitude": 48.931729, "longitude": 2.493994, "result_score": 0.96, "result_type": "housenumber", "latlong": {"lon": 2.493994, "lat": 48.931729}, "adresse_comp": "5 Place du G\u00e9n\u00e9ral de Gaulle, 93600 Aulnay-sous-Bois"},{"gare": "Gare de M\u00e9riel", "ligne": "H", "numero_de_voie": null, "voie": "Place de la Gare", "code_postal": 95630, "code_insee": 95392, "ville": "M\u00e9riel", "latitude": 49.07772, "longitude": 2.205012, "result_score": 0.95, "result_type": "street", "latlong": {"lon": 2.205012, "lat": 49.07772}, "adresse_comp": "Place de la Gare, 95630 M\u00e9riel"},{"gare": "Gare de Dammartin \u2013 Juilly - Saint-Mard", "ligne": "K", "numero_de_voie": null, "voie": "Place de la Gare", "code_postal": 77230, "code_insee": 77420, "ville": "Saint-Mard", "latitude": 49.032271, "longitude": 2.698536, "result_score": 0.95, "result_type": "street", "latlong": {"lon": 2.698536, "lat": 49.032271}, "adresse_comp": "Place de la Gare, 77230 Saint-Mard"},{"gare": "Gare de Roissy-en-Brie", "ligne": "E", "numero_de_voie": null, "voie": "Place de la Gare", "code_postal": 77680, "code_insee": 77390, "ville": "Roissy-en-Brie", "latitude": 48.794863, "longitude": 2.649826, "result_score": 0.96, "result_type": "street", "latlong": {"lon": 2.649826, "lat": 48.794863}, "adresse_comp": "Place de la Gare, 77680 Roissy-en-Brie"},{"gare": "Gare de Coigni\u00e8res", "ligne": "N", "numero_de_voie": null, "voie": "Avenue de la Gare", "code_postal": 78310, "code_insee": 78168, "ville": "Coigni\u00e8res", "latitude": 48.74327, "longitude": 1.918194, "result_score": 0.96, "result_type": "street", "latlong": {"lon": 1.918194, "lat": 48.74327}, "adresse_comp": "Avenue de la Gare, 78310 Coigni\u00e8res"},{"gare": "Gare de Dourdan", "ligne": "N", "numero_de_voie": null, "voie": "Avenue du Docteur Jules Bals", "code_postal": 91410, "code_insee": 91200, "ville": "Doudan", "latitude": 48.533212, "longitude": 2.010167, "result_score": 0.88, "result_type": "street", "latlong": {"lon": 2.010167, "lat": 48.533212}, "adresse_comp": "Avenue du Docteur Jules Bals, 91410 Doudan"},{"gare": "Gare d\u2019Issy", "ligne": "C", "numero_de_voie": null, "voie": "87 Avenue de Verdun", "code_postal": 92130, "code_insee": 92040, "ville": "Issy-les-Moulineaux", "latitude": 48.82042, "longitude": 2.259174, "result_score": 0.98, "result_type": "housenumber", "latlong": {"lon": 2.259174, "lat": 48.82042}, "adresse_comp": "87 Avenue de Verdun, 92130 Issy-les-Moulineaux"},{"gare": "Gare de Les Saules", "ligne": "C", "numero_de_voie": 18, "voie": "rue du 19 mars 1962", "code_postal": 94310, "code_insee": 94054, "ville": "Orly", "latitude": 48.745508, "longitude": 2.417049, "result_score": 0.85, "result_type": "street", "latlong": {"lon": 2.417049, "lat": 48.745508}, "adresse_comp": "18 rue du 19 mars 1962, 94310 Orly"},{"gare": "Gare d'US", "ligne": "J", "numero_de_voie": null, "voie": "Rue de la Gare", "code_postal": 95450, "code_insee": 95625, "ville": "US", "latitude": 49.100486, "longitude": 1.970612, "result_score": 0.95, "result_type": "street", "latlong": {"lon": 1.970612, "lat": 49.100486}, "adresse_comp": "Rue de la Gare, 95450 US"},{"gare": "Gare de Fontainebleau - Avon", "ligne": "R", "numero_de_voie": null, "voie": "Place de la Gare", "code_postal": 77210, "code_insee": 77014, "ville": "Avon", "latitude": 48.416484, "longitude": 2.725839, "result_score": 0.95, "result_type": "street", "latlong": {"lon": 2.725839, "lat": 48.416484}, "adresse_comp": "Place de la Gare, 77210 Avon"},{"gare": "Gare de Mitry-Claye", "ligne": "B", "numero_de_voie": null, "voie": "Rue Jean Caille", "code_postal": 77290, "code_insee": 77294, "ville": "Mitry-Mory", "latitude": 48.974998, "longitude": 2.641828, "result_score": 0.96, "result_type": "street", "latlong": {"lon": 2.641828, "lat": 48.974998}, "adresse_comp": "Rue Jean Caille, 77290 Mitry-Mory"},{"gare": "Gare d\u2019Esbly", "ligne": "P", "numero_de_voie": null, "voie": "Place de la Gare", "code_postal": 77450, "code_insee": 77171, "ville": "Esbly", "latitude": 48.903035, "longitude": 2.810899, "result_score": null, "result_type": null, "latlong": {"lon": 2.810899, "lat": 48.903035}, "adresse_comp": "Place de la Gare, 77450 Esbly"},{"gare": "Gare de Faremoutiers - Pommeuse", "ligne": "P", "numero_de_voie": null, "voie": "Avenue de la Gare", "code_postal": 77515, "code_insee": 77371, "ville": "Pommeuse", "latitude": 48.809259, "longitude": 2.993457, "result_score": 0.96, "result_type": "street", "latlong": {"lon": 2.993457, "lat": 48.809259}, "adresse_comp": "Avenue de la Gare, 77515 Pommeuse"},{"gare": "Gare de Marles-en-Brie", "ligne": "P", "numero_de_voie": null, "voie": "Chemin de Fer", "code_postal": 77610, "code_insee": 77229, "ville": "La Houssaye-en-Brie", "latitude": 48.733948, "longitude": 2.868403, "result_score": 0.95, "result_type": "street", "latlong": {"lon": 2.868403, "lat": 48.733948}, "adresse_comp": "Chemin de Fer, 77610 La Houssaye-en-Brie"},{"gare": "Gare de Vernouillet-Verneuil", "ligne": "J", "numero_de_voie": null, "voie": "Place du G\u00e9n\u00e9ral Charles de Gaulle", "code_postal": 78480, "code_insee": 78642, "ville": "Verneuil-sur-Seine", "latitude": 48.981086, "longitude": 1.982609, "result_score": null, "result_type": null, "latlong": {"lon": 1.982609, "lat": 48.981086}, "adresse_comp": "Place du G\u00e9n\u00e9ral Charles de Gaulle, 78480 Verneuil-sur-Seine"},{"gare": "Gare de Montfort l'Amaury - M\u00e9r\u00e9", "ligne": "N", "numero_de_voie": null, "voie": "Place Louis Valton", "code_postal": 78490, "code_insee": 78389, "ville": "M\u00e9r\u00e9", "latitude": 48.802442, "longitude": 1.815489, "result_score": 0.79, "result_type": "street", "latlong": {"lon": 1.815489, "lat": 48.802442}, "adresse_comp": "Place Louis Valton, 78490 M\u00e9r\u00e9"},{"gare": "Gare d\u2019Arpajon", "ligne": "C", "numero_de_voie": null, "voie": "Avenue Aristide Briand", "code_postal": 91290, "code_insee": 91021, "ville": "Arpajon", "latitude": 48.586733, "longitude": 2.243674, "result_score": 0.96, "result_type": "street", "latlong": {"lon": 2.243674, "lat": 48.586733}, "adresse_comp": "Avenue Aristide Briand, 91290 Arpajon"},{"gare": "Gare de Massy - Palaiseau", "ligne": "C", "numero_de_voie": null, "voie": "Avenue Raymond Aron", "code_postal": 91300, "code_insee": 91377, "ville": "Massy", "latitude": 48.727298, "longitude": 2.25788, "result_score": 0.97, "result_type": "street", "latlong": {"lon": 2.25788, "lat": 48.727298}, "adresse_comp": "Avenue Raymond Aron, 91300 Massy"},{"gare": "Gare d\u2019Angerville", "ligne": "C", "numero_de_voie": null, "voie": "Place de la Gare", "code_postal": 91670, "code_insee": 91016, "ville": "Angerville", "latitude": 48.311569, "longitude": 2.002934, "result_score": null, "result_type": null, "latlong": {"lon": 2.002934, "lat": 48.311569}, "adresse_comp": "Place de la Gare, 91670 Angerville"},{"gare": "Gare d\u2019Asni\u00e8res-sur-Seine", "ligne": "L", "numero_de_voie": null, "voie": "Rue d'Anjou", "code_postal": 92600, "code_insee": 92004, "ville": "Asni\u00e8res-sur-Seine", "latitude": 48.904522, "longitude": 2.281624, "result_score": 0.97, "result_type": "street", "latlong": {"lon": 2.281624, "lat": 48.904522}, "adresse_comp": "Rue d'Anjou, 92600 Asni\u00e8res-sur-Seine"},{"gare": "Gare de Pierrefitte-Stains", "ligne": "D", "numero_de_voie": 1, "voie": "Place du G\u00e9n\u00e9ral Leclerc", "code_postal": 93380, "code_insee": 93059, "ville": "Pierrefitte-sur-Seine", "latitude": 48.964578, "longitude": 2.372569, "result_score": 0.77, "result_type": "housenumber", "latlong": {"lon": 2.372569, "lat": 48.964578}, "adresse_comp": "1 Place du G\u00e9n\u00e9ral Leclerc, 93380 Pierrefitte-sur-Seine"},{"gare": "Gare de Goussainville", "ligne": "H", "numero_de_voie": null, "voie": "Place du 8-Mai-1945", "code_postal": 95190, "code_insee": 95280, "ville": "Goussainville", "latitude": 49.023947, "longitude": 2.462996, "result_score": 0.96, "result_type": "street", "latlong": {"lon": 2.462996, "lat": 49.023947}, "adresse_comp": "Place du 8-Mai-1945, 95190 Goussainville"},{"gare": "Gare de Houilles", "ligne": "L", "numero_de_voie": null, "voie": "Place Andr\u00e9 Malraux", "code_postal": 78800, "code_insee": 78311, "ville": "Houilles", "latitude": 48.919315, "longitude": 2.185414, "result_score": 0.87, "result_type": "street", "latlong": {"lon": 2.185414, "lat": 48.919315}, "adresse_comp": "Place Andr\u00e9 Malraux, 78800 Houilles"},{"gare": "Gare de Lizy-sur-Ourcq", "ligne": "P", "numero_de_voie": null, "voie": "Avenue de la Gare", "code_postal": 77440, "code_insee": 77257, "ville": "Lizy-sur-Ourcq", "latitude": 49.023298, "longitude": 3.029426, "result_score": 0.95, "result_type": "street", "latlong": {"lon": 3.029426, "lat": 49.023298}, "adresse_comp": "Avenue de la Gare, 77440 Lizy-sur-Ourcq"},{"gare": "Gare d\u2019Issy-Val de Seine", "ligne": "C", "numero_de_voie": null, "voie": "Rue Rouget de Lisle", "code_postal": 92130, "code_insee": 92040, "ville": "Issy-les-Moulineaux", "latitude": 48.828719, "longitude": 2.264647, "result_score": 0.97, "result_type": "street", "latlong": {"lon": 2.264647, "lat": 48.828719}, "adresse_comp": "Rue Rouget de Lisle, 92130 Issy-les-Moulineaux"},{"gare": "Gare de Chaville-Rive-Gauche", "ligne": "N", "numero_de_voie": 29, "voie": "rue Anatole France", "code_postal": 92370, "code_insee": 92022, "ville": "Chaville", "latitude": 48.805123, "longitude": 2.188425, "result_score": 0.97, "result_type": "housenumber", "latlong": {"lon": 2.188425, "lat": 48.805123}, "adresse_comp": "29 rue Anatole France, 92370 Chaville"},{"gare": "Gare de La Courneuve-Aubervilliers", "ligne": "B", "numero_de_voie": null, "voie": "Place de la Gare", "code_postal": 93120, "code_insee": 93027, "ville": "La Courneuve", "latitude": 48.924316, "longitude": 2.384607, "result_score": null, "result_type": null, "latlong": {"lon": 2.384607, "lat": 48.924316}, "adresse_comp": "Place de la Gare, 93120 La Courneuve"},{"gare": "Gare du Ch\u00e9nay-Gagny", "ligne": "E", "numero_de_voie": 39, "voie": "Rue du Chemin de Fer", "code_postal": 93220, "code_insee": 93032, "ville": "Gagny", "latitude": 48.876559, "longitude": 2.552759, "result_score": 0.97, "result_type": "housenumber", "latlong": {"lon": 2.552759, "lat": 48.876559}, "adresse_comp": "39 Rue du Chemin de Fer, 93220 Gagny"},{"gare": "Gare de Deuil - Montmagny", "ligne": "H", "numero_de_voie": null, "voie": "Avenue du Commandant Manoukian", "code_postal": 95170, "code_insee": 95197, "ville": "Deuil-la-Barre", "latitude": 48.975605, "longitude": 2.337192, "result_score": 0.96, "result_type": "street", "latlong": {"lon": 2.337192, "lat": 48.975605}, "adresse_comp": "Avenue du Commandant Manoukian, 95170 Deuil-la-Barre"},{"gare": "Gare d\u2019Herblay", "ligne": "J", "numero_de_voie": null, "voie": "Place Gabriel-Peri", "code_postal": 95220, "code_insee": 95306, "ville": "Herblay-sur-Seine", "latitude": 48.990697, "longitude": 2.161918, "result_score": 0.96, "result_type": "street", "latlong": {"lon": 2.161918, "lat": 48.990697}, "adresse_comp": "Place Gabriel-Peri, 95220 Herblay-sur-Seine"},{"gare": "Gare de Saint-Leu-La-For\u00eat", "ligne": "H", "numero_de_voie": null, "voie": "Place Cyrille Lecomte", "code_postal": 95320, "code_insee": 95563, "ville": "Saint-Leu-La-For\u00eat", "latitude": 49.015948, "longitude": 2.2428, "result_score": 0.95, "result_type": "street", "latlong": {"lon": 2.2428, "lat": 49.015948}, "adresse_comp": "Place Cyrille Lecomte, 95320 Saint-Leu-La-For\u00eat"},{"gare": "Gare de Persan - Beaumont", "ligne": "H", "numero_de_voie": null, "voie": "Place de la Gare", "code_postal": 95340, "code_insee": 95487, "ville": "Persan", "latitude": 49.147981, "longitude": 2.279262, "result_score": null, "result_type": null, "latlong": {"lon": 2.279262, "lat": 49.147981}, "adresse_comp": "Place de la Gare, 95340 Persan"},{"gare": "Gare des Mureaux", "ligne": "J", "numero_de_voie": null, "voie": "Place du 8 mai 1945", "code_postal": 78130, "code_insee": 78440, "ville": "Mureaux", "latitude": 48.993246, "longitude": 1.912013, "result_score": 0.84, "result_type": "street", "latlong": {"lon": 1.912013, "lat": 48.993246}, "adresse_comp": "Place du 8 mai 1945, 78130 Mureaux"},{"gare": "Gare de Viroflay-Rive-Gauche", "ligne": "N", "numero_de_voie": null, "voie": "Rue Rieussec", "code_postal": 78220, "code_insee": 78686, "ville": "Viroflay", "latitude": 48.801658, "longitude": 2.170757, "result_score": 0.97, "result_type": "street", "latlong": {"lon": 2.170757, "lat": 48.801658}, "adresse_comp": "Rue Rieussec, 78220 Viroflay"},{"gare": "Gare de Plaisir-Grignon", "ligne": "N", "numero_de_voie": null, "voie": "Avenue du 19 Mars 1962", "code_postal": 78370, "code_insee": 78490, "ville": "Plaisir", "latitude": 48.831298, "longitude": 1.943454, "result_score": 0.96, "result_type": "street", "latlong": {"lon": 1.943454, "lat": 48.831298}, "adresse_comp": "Avenue du 19 Mars 1962, 78370 Plaisir"},{"gare": "Gare de L'\u00c9tang La Ville", "ligne": "L", "numero_de_voie": null, "voie": "Rue de la Station", "code_postal": 78620, "code_insee": 78224, "ville": "L'\u00c9tang La Ville", "latitude": 48.869087, "longitude": 2.077957, "result_score": 0.95, "result_type": "street", "latlong": {"lon": 2.077957, "lat": 48.869087}, "adresse_comp": "Rue de la Station, 78620 L'\u00c9tang La Ville"},{"gare": "Gare de Juvisy", "ligne": "C", "numero_de_voie": null, "voie": "Place Banette et Planchon", "code_postal": 91260, "code_insee": 91326, "ville": "Juvisy-sur-Orge", "latitude": 48.689155, "longitude": 2.382571, "result_score": 0.95, "result_type": "street", "latlong": {"lon": 2.382571, "lat": 48.689155}, "adresse_comp": "Place Banette et Planchon, 91260 Juvisy-sur-Orge"},{"gare": "Gare de Yerres", "ligne": "D", "numero_de_voie": null, "voie": "Place de la Gare", "code_postal": 91330, "code_insee": 91691, "ville": "Yerres", "latitude": 48.7069, "longitude": 2.483348, "result_score": null, "result_type": null, "latlong": {"lon": 2.483348, "lat": 48.7069}, "adresse_comp": "Place de la Gare, 91330 Yerres"},{"gare": "Gare Les Vall\u00e9es", "ligne": "L", "numero_de_voie": null, "voie": "Place de la Gare des Vall\u00e9es", "code_postal": 92250, "code_insee": 92035, "ville": "La Garenne-Colombes", "latitude": 48.913244, "longitude": 2.257589, "result_score": 0.96, "result_type": "street", "latlong": {"lon": 2.257589, "lat": 48.913244}, "adresse_comp": "Place de la Gare des Vall\u00e9es, 92250 La Garenne-Colombes"},{"gare": "Gare de Chaville-Rive-Droite", "ligne": "L", "numero_de_voie": 32, "voie": "rue Carnot", "code_postal": 92370, "code_insee": 92022, "ville": "Chaville", "latitude": 48.812034, "longitude": 2.187768, "result_score": 0.97, "result_type": "housenumber", "latlong": {"lon": 2.187768, "lat": 48.812034}, "adresse_comp": "32 rue Carnot, 92370 Chaville"},{"gare": "Gare du Bourget", "ligne": "B", "numero_de_voie": null, "voie": "Place des D\u00e9port\u00e9s", "code_postal": 93250, "code_insee": 93013, "ville": "Le Bourget", "latitude": 48.930764, "longitude": 2.425224, "result_score": 0.95, "result_type": "street", "latlong": {"lon": 2.425224, "lat": 48.930764}, "adresse_comp": "Place des D\u00e9port\u00e9s, 93250 Le Bourget"},{"gare": "Gare de Choisy-le-Roi", "ligne": "C", "numero_de_voie": null, "voie": "Avenue du 8 mai 1945", "code_postal": 94600, "code_insee": 94022, "ville": "Choisy-le-Roi", "latitude": 48.767874, "longitude": 2.409747, "result_score": 0.96, "result_type": "street", "latlong": {"lon": 2.409747, "lat": 48.767874}, "adresse_comp": "Avenue du 8 mai 1945, 94600 Choisy-le-Roi"},{"gare": "Gare de Bessancourt", "ligne": "H", "numero_de_voie": null, "voie": "Place de la Gare", "code_postal": 95550, "code_insee": 95060, "ville": "Bessancourt", "latitude": 49.036746, "longitude": 2.210741, "result_score": 0.77, "result_type": "street", "latlong": {"lon": 2.210741, "lat": 49.036746}, "adresse_comp": "Place de la Gare, 95550 Bessancourt"},{"gare": "Gare de Provins", "ligne": "P", "numero_de_voie": null, "voie": "Avenue Jean Jaur\u00e8s", "code_postal": 77160, "code_insee": 77379, "ville": "Provins", "latitude": 48.55535, "longitude": 3.298955, "result_score": 0.95, "result_type": "street", "latlong": {"lon": 3.298955, "lat": 48.55535}, "adresse_comp": "Avenue Jean Jaur\u00e8s, 77160 Provins"},{"gare": "Gare de Gretz-Armainvilliers", "ligne": "E", "numero_de_voie": null, "voie": "Avenue de la Libert\u00e9", "code_postal": 77220, "code_insee": 77215, "ville": "Gretz-Armainvilliers", "latitude": 48.741668, "longitude": 2.738154, "result_score": 0.95, "result_type": "street", "latlong": {"lon": 2.738154, "lat": 48.741668}, "adresse_comp": "Avenue de la Libert\u00e9, 77220 Gretz-Armainvilliers"},{"gare": "Gare de Villeparisis - Mitry-Le Neuf", "ligne": "B", "numero_de_voie": null, "voie": "Avenue du 19 mars 1962", "code_postal": 77270, "code_insee": 77294, "ville": "Mitry-Mory", "latitude": 48.953954, "longitude": 2.604461, "result_score": 0.95, "result_type": "street", "latlong": {"lon": 2.604461, "lat": 48.953954}, "adresse_comp": "Avenue du 19 mars 1962, 77270 Mitry-Mory"},{"gare": "Gare de Ponthierry-Pringy", "ligne": "R", "numero_de_voie": null, "voie": "Rue Maurice Leroy", "code_postal": 77310, "code_insee": 77407, "ville": "Saint-Fargeau-Ponthierry", "latitude": 48.535463, "longitude": 2.542372, "result_score": 0.86, "result_type": "street", "latlong": {"lon": 2.542372, "lat": 48.535463}, "adresse_comp": "Rue Maurice Leroy, 77310 Saint-Fargeau-Ponthierry"},{"gare": "Gare de Sainte-Colombe Septveilles", "ligne": "P", "numero_de_voie": null, "voie": "rue Victor Hugo", "code_postal": 77650, "code_insee": 77404, "ville": "Sainte-Colombe", "latitude": 48.527913, "longitude": 3.259434, "result_score": 0.95, "result_type": "street", "latlong": {"lon": 3.259434, "lat": 48.527913}, "adresse_comp": "rue Victor Hugo, 77650 Sainte-Colombe"},{"gare": "Gare de Mantes-la-Jolie", "ligne": "J", "numero_de_voie": null, "voie": "Place du 8 mai 1945", "code_postal": 78200, "code_insee": 78361, "ville": "Mantes-la-Jolie", "latitude": 48.989875, "longitude": 1.703462, "result_score": 0.96, "result_type": "street", "latlong": {"lon": 1.703462, "lat": 48.989875}, "adresse_comp": "Place du 8 mai 1945, 78200 Mantes-la-Jolie"},{"gare": "Gare d\u2019\u00c9pinay-sur-Orge", "ligne": "C", "numero_de_voie": null, "voie": "Place Stalingrad", "code_postal": 91360, "code_insee": 91216, "ville": "\u00c9pinay-sur-Orge", "latitude": 48.669613, "longitude": 2.331329, "result_score": 0.95, "result_type": "street", "latlong": {"lon": 2.331329, "lat": 48.669613}, "adresse_comp": "Place Stalingrad, 91360 \u00c9pinay-sur-Orge"},{"gare": "Gare de Meudon", "ligne": "N", "numero_de_voie": null, "voie": "Place du 8 mai 1945", "code_postal": 92190, "code_insee": 92048, "ville": "Meudon", "latitude": 48.814818, "longitude": 2.240992, "result_score": 0.96, "result_type": "street", "latlong": {"lon": 2.240992, "lat": 48.814818}, "adresse_comp": "Place du 8 mai 1945, 92190 Meudon"},{"gare": "Gare de Colombes", "ligne": "J", "numero_de_voie": null, "voie": "rue Saint-Denis", "code_postal": 92700, "code_insee": 92025, "ville": "Colombes", "latitude": 48.923831, "longitude": 2.250902, "result_score": 0.98, "result_type": "street", "latlong": {"lon": 2.250902, "lat": 48.923831}, "adresse_comp": "rue Saint-Denis, 92700 Colombes"},{"gare": "Gare de Sannois", "ligne": "J", "numero_de_voie": null, "voie": "Place Salvador Allende", "code_postal": 95110, "code_insee": 95582, "ville": "Sannois", "latitude": 48.970307, "longitude": 2.263231, "result_score": 0.96, "result_type": "street", "latlong": {"lon": 2.263231, "lat": 48.970307}, "adresse_comp": "Place Salvador Allende, 95110 Sannois"},{"gare": "Gare de Montsoult - Maffliers", "ligne": "H", "numero_de_voie": null, "voie": "Rue \u00c9mile-Combres", "code_postal": 95560, "code_insee": 95430, "ville": "Montsoult", "latitude": 49.067086, "longitude": 2.323094, "result_score": 0.96, "result_type": "street", "latlong": {"lon": 2.323094, "lat": 49.067086}, "adresse_comp": "Rue \u00c9mile-Combres, 95560 Montsoult"},{"gare": "Gare de Meaux", "ligne": "P", "numero_de_voie": null, "voie": "Place de la Gare", "code_postal": 77100, "code_insee": 77284, "ville": "Meaux", "latitude": 48.957227, "longitude": 2.873921, "result_score": 0.96, "result_type": "street", "latlong": {"lon": 2.873921, "lat": 48.957227}, "adresse_comp": "Place de la Gare, 77100 Meaux"},{"gare": "Gare de Verneuil-l'\u00c9tang", "ligne": "P", "numero_de_voie": 41, "voie": "rue de la Gare", "code_postal": 77390, "code_insee": 77493, "ville": "Verneuil-l'Etang", "latitude": 48.645957, "longitude": 2.822783, "result_score": 0.96, "result_type": "housenumber", "latlong": {"lon": 2.822783, "lat": 48.645957}, "adresse_comp": "41 rue de la Gare, 77390 Verneuil-l'Etang"},{"gare": "Gare de Souppes - Ch\u00e2teau-Landon", "ligne": "R", "numero_de_voie": null, "voie": "Rue Paul-Rollin", "code_postal": 77460, "code_insee": 77458, "ville": "Souppes-sur-Loing", "latitude": 48.182364, "longitude": 2.73524, "result_score": 0.96, "result_type": "street", "latlong": {"lon": 2.73524, "lat": 48.182364}, "adresse_comp": "Rue Paul-Rollin, 77460 Souppes-sur-Loing"},{"gare": "Gare de Longueville", "ligne": "P", "numero_de_voie": null, "voie": "rue de Verdun", "code_postal": 77650, "code_insee": 77260, "ville": "Longueville", "latitude": 48.513291, "longitude": 3.24982, "result_score": 0.95, "result_type": "street", "latlong": {"lon": 3.24982, "lat": 48.513291}, "adresse_comp": "rue de Verdun, 77650 Longueville"},{"gare": "Gare de Crouy-sur-Ourcq", "ligne": "P", "numero_de_voie": null, "voie": "Rue de Houssoy", "code_postal": 77840, "code_insee": 77148, "ville": "Crouy-sur-Ourcq", "latitude": 49.092952, "longitude": 3.061757, "result_score": 0.82, "result_type": "street", "latlong": {"lon": 3.061757, "lat": 49.092952}, "adresse_comp": "Rue de Houssoy, 77840 Crouy-sur-Ourcq"},{"gare": "Gare du Perray", "ligne": "N", "numero_de_voie": null, "voie": "All\u00e9e des Platanes", "code_postal": 78610, "code_insee": 78486, "ville": "Le Perray-en-Yvelines", "latitude": 48.692704, "longitude": 1.855469, "result_score": 0.96, "result_type": "street", "latlong": {"lon": 1.855469, "lat": 48.692704}, "adresse_comp": "All\u00e9e des Platanes, 78610 Le Perray-en-Yvelines"},{"gare": "Gare d\u2019\u00c9vry - Courcouronnes", "ligne": "D", "numero_de_voie": null, "voie": "Cours Marc Seguin", "code_postal": 91000, "code_insee": 91228, "ville": "\u00c9vry-Courcouronnes", "latitude": 48.624999, "longitude": 2.428442, "result_score": null, "result_type": null, "latlong": {"lon": 2.428442, "lat": 48.624999}, "adresse_comp": "Cours Marc Seguin, 91000 \u00c9vry-Courcouronnes"},{"gare": "Gare de Garches \u2013 Marnes-La-Coquette", "ligne": "L", "numero_de_voie": null, "voie": "Place de la Gare", "code_postal": 92380, "code_insee": 92033, "ville": "Garches", "latitude": 48.838498, "longitude": 2.187028, "result_score": 0.96, "result_type": "street", "latlong": {"lon": 2.187028, "lat": 48.838498}, "adresse_comp": "Place de la Gare, 92380 Garches"},{"gare": "Gare de Drancy", "ligne": "B", "numero_de_voie": 169, "voie": "rue Anatole France", "code_postal": 93700, "code_insee": 93029, "ville": "Drancy", "latitude": 48.930179, "longitude": 2.454357, "result_score": 0.98, "result_type": "housenumber", "latlong": {"lon": 2.454357, "lat": 48.930179}, "adresse_comp": "169 rue Anatole France, 93700 Drancy"},{"gare": "Gare de Rungis - La Fraternelle", "ligne": "C", "numero_de_voie": 10, "voie": "Voie des Avernaises", "code_postal": 94150, "code_insee": 94065, "ville": "Rungis", "latitude": 48.739601, "longitude": 2.351935, "result_score": null, "result_type": null, "latlong": {"lon": 2.351935, "lat": 48.739601}, "adresse_comp": "10 Voie des Avernaises, 94150 Rungis"},{"gare": "Gare Les Boullereaux-Champigny", "ligne": "E", "numero_de_voie": null, "voie": "Avenue Danielle-Casanova", "code_postal": 94500, "code_insee": 94017, "ville": "Champigny-sur-Marne", "latitude": 48.824841, "longitude": 2.514121, "result_score": 0.97, "result_type": "street", "latlong": {"lon": 2.514121, "lat": 48.824841}, "adresse_comp": "Avenue Danielle-Casanova, 94500 Champigny-sur-Marne"},{"gare": "Gare de La Frette - Montigny", "ligne": "J", "numero_de_voie": null, "voie": "Place de la Gare", "code_postal": 95530, "code_insee": 95257, "ville": "Frette-sur-Seine", "latitude": 48.980249, "longitude": 2.18059, "result_score": 0.87, "result_type": "street", "latlong": {"lon": 2.18059, "lat": 48.980249}, "adresse_comp": "Place de la Gare, 95530 Frette-sur-Seine"},{"gare": "Gare de Melun", "ligne": "D", "numero_de_voie": null, "voie": "Place Gallieni", "code_postal": 77000, "code_insee": 77288, "ville": "Melun", "latitude": 48.527887, "longitude": 2.655664, "result_score": 0.96, "result_type": "street", "latlong": {"lon": 2.655664, "lat": 48.527887}, "adresse_comp": "Place Gallieni, 77000 Melun"},{"gare": "Gare de Saint-Fargeau", "ligne": "R", "numero_de_voie": null, "voie": "Avenue de la Gare", "code_postal": 77310, "code_insee": 77407, "ville": "Saint-Fargeau-Ponthierry", "latitude": 48.559639, "longitude": 2.533966, "result_score": 0.97, "result_type": "street", "latlong": {"lon": 2.533966, "lat": 48.559639}, "adresse_comp": "Avenue de la Gare, 77310 Saint-Fargeau-Ponthierry"},{"gare": "Gare d\u2019Ozoir-La-Ferri\u00e8re", "ligne": "E", "numero_de_voie": null, "voie": "Place Roger Nicolas", "code_postal": 77330, "code_insee": 77350, "ville": "Ozoir-La-Ferri\u00e8re", "latitude": 48.770795, "longitude": 2.689602, "result_score": 0.96, "result_type": "street", "latlong": {"lon": 2.689602, "lat": 48.770795}, "adresse_comp": "Place Roger Nicolas, 77330 Ozoir-La-Ferri\u00e8re"},{"gare": "Gare de Bonni\u00e8res", "ligne": "J", "numero_de_voie": null, "voie": "Place du 8 mai 1945", "code_postal": 78270, "code_insee": 78089, "ville": "Bonni\u00e8res-sur-Seine", "latitude": 49.03863, "longitude": 1.581778, "result_score": null, "result_type": null, "latlong": {"lon": 1.581778, "lat": 49.03863}, "adresse_comp": "Place du 8 mai 1945, 78270 Bonni\u00e8res-sur-Seine"},{"gare": "Gare de Fontenay-le-Fleury", "ligne": "N", "numero_de_voie": null, "voie": "Avenue Georges Pompidou", "code_postal": 78330, "code_insee": 78242, "ville": "Fontenay-le-Fleury", "latitude": 48.809072, "longitude": 2.042481, "result_score": 0.96, "result_type": "street", "latlong": {"lon": 2.042481, "lat": 48.809072}, "adresse_comp": "Avenue Georges Pompidou, 78330 Fontenay-le-Fleury"},{"gare": "Gare des Clairi\u00e8res de Verneuil", "ligne": "J", "numero_de_voie": null, "voie": "Place de la R\u00e9sistance", "code_postal": 78480, "code_insee": 78642, "ville": "Verneuil-sur-Seine", "latitude": 48.992178, "longitude": 1.95513, "result_score": null, "result_type": null, "latlong": {"lon": 1.95513, "lat": 48.992178}, "adresse_comp": "Place de la R\u00e9sistance, 78480 Verneuil-sur-Seine"},{"gare": "Gare d\u2019Athis-Mons", "ligne": "C", "numero_de_voie": null, "voie": "Quai de Seine", "code_postal": 91200, "code_insee": 91027, "ville": "Athis-Mons", "latitude": 48.713445, "longitude": 2.405385, "result_score": 0.96, "result_type": "street", "latlong": {"lon": 2.405385, "lat": 48.713445}, "adresse_comp": "Quai de Seine, 91200 Athis-Mons"},{"gare": "Gare du Val-d'Or", "ligne": "L", "numero_de_voie": 33, "voie": "avenue Alfred Belmontet", "code_postal": 92210, "code_insee": 92064, "ville": "Saint-Cloud", "latitude": 48.857072, "longitude": 2.217109, "result_score": 0.97, "result_type": "housenumber", "latlong": {"lon": 2.217109, "lat": 48.857072}, "adresse_comp": "33 avenue Alfred Belmontet, 92210 Saint-Cloud"},{"gare": "Gare d\u2019Enghien les Bains", "ligne": "H", "numero_de_voie": null, "voie": "Rue du D\u00e9part", "code_postal": 95880, "code_insee": 95210, "ville": "Enghien les Bains", "latitude": 48.974294, "longitude": 2.304715, "result_score": 0.96, "result_type": "street", "latlong": {"lon": 2.304715, "lat": 48.974294}, "adresse_comp": "Rue du D\u00e9part, 95880 Enghien les Bains"},{"gare": "Gare de Conflans-Fin-d\u2019Oise", "ligne": "J", "numero_de_voie": 22, "voie": "Rue d'Andr\u00e9sy", "code_postal": 78700, "code_insee": 78172, "ville": "Conflans-Sainte-Honorine", "latitude": 48.991715, "longitude": 2.075232, "result_score": 0.87, "result_type": "housenumber", "latlong": {"lon": 2.075232, "lat": 48.991715}, "adresse_comp": "22 Rue d'Andr\u00e9sy, 78700 Conflans-Sainte-Honorine"}]